{
  "AHRS": {
    "mavpackettype": "AHRS",
    "omegaIx": -0.0037429574877023697,
    "omegaIy": -0.0037882612086832523,
    "omegaIz": -0.0033512869849801064,
    "accel_weight": 0.0,
    "renorm_val": 0.0,
    "error_rp": 0.035328011959791183,
    "error_yaw": 0.06361354142427444
  },
  "AHRS2": {
    "mavpackettype": "AHRS2",
    "roll": -0.026156941428780556,
    "pitch": 0.13107220828533173,
    "yaw": 1.1922080516815186,
    "altitude": -0.05999999865889549,
    "lat": 559954426,
    "lng": -33021955
  },
  "ATTITUDE": {
    "mavpackettype": "ATTITUDE",
    "time_boot_ms": 876849,
    "roll": -0.029140444472432137,
    "pitch": 0.12483396381139755,
    "yaw": 1.2217501401901245,
    "rollspeed": 0.3607562482357025,
    "pitchspeed": 0.533596932888031,
    "yawspeed": 0.04575170949101448
  },
  "GLOBAL_POSITION_INT": {
    "mavpackettype": "GLOBAL_POSITION_INT",
    "time_boot_ms": 876849,
    "lat": 559954423,
    "lon": -33021956,
    "alt": 40,
    "relative_alt": 57,
    "vx": -4,
    "vy": -8,
    "vz": -23,
    "hdg": 7000
  },
  "VFR_HUD": {
    "mavpackettype": "VFR_HUD",
    "airspeed": 0.10000000149011612,
    "groundspeed": 0.09558263421058655,
    "heading": 70,
    "throttle": 0,
    "alt": 0.03999999910593033,
    "climb": 0.2399473786354065
  },
  "SYS_STATUS": {
    "mavpackettype": "SYS_STATUS",
    "onboard_control_sensors_present": 322034735,
    "onboard_control_sensors_enabled": 304185391,
    "onboard_control_sensors_health": 322011439,
    "load": 0,
    "voltage_battery": 12600,
    "current_battery": 0,
    "battery_remaining": 100,
    "drop_rate_comm": 0,
    "errors_comm": 0,
    "errors_count1": 0,
    "errors_count2": 0,
    "errors_count3": 0,
    "errors_count4": 0
  },
  "POWER_STATUS": {
    "mavpackettype": "POWER_STATUS",
    "Vcc": 5000,
    "Vservo": 0,
    "flags": 0
  },
  "MEMINFO": {
    "mavpackettype": "MEMINFO",
    "brkval": 0,
    "freemem": 65535,
    "freemem32": 131072
  },
  "MISSION_CURRENT": {
    "mavpackettype": "MISSION_CURRENT",
    "seq": 0,
    "total": 0,
    "mission_state": 1,
    "mission_mode": 0
  },
  "SERVO_OUTPUT_RAW": {
    "mavpackettype": "SERVO_OUTPUT_RAW",
    "time_usec": 876849395,
    "port": 0,
    "servo1_raw": 1500,
    "servo2_raw": 0,
    "servo3_raw": 1500,
    "servo4_raw": 0,
    "servo5_raw": 0,
    "servo6_raw": 0,
    "servo7_raw": 0,
    "servo8_raw": 0,
    "servo9_raw": 0,
    "servo10_raw": 0,
    "servo11_raw": 0,
    "servo12_raw": 0,
    "servo13_raw": 0,
    "servo14_raw": 0,
    "servo15_raw": 0,
    "servo16_raw": 0
  },
  "RC_CHANNELS": {
    "mavpackettype": "RC_CHANNELS",
    "time_boot_ms": 876849,
    "chancount": 8,
    "chan1_raw": 1500,
    "chan2_raw": 1500,
    "chan3_raw": 1500,
    "chan4_raw": 1500,
    "chan5_raw": 1800,
    "chan6_raw": 1000,
    "chan7_raw": 1000,
    "chan8_raw": 1800,
    "chan9_raw": 0,
    "chan10_raw": 0,
    "chan11_raw": 0,
    "chan12_raw": 0,
    "chan13_raw": 0,
    "chan14_raw": 0,
    "chan15_raw": 0,
    "chan16_raw": 0,
    "chan17_raw": 0,
    "chan18_raw": 0,
    "rssi": 255
  },
  "RAW_IMU": {
    "mavpackettype": "RAW_IMU",
    "time_usec": 876849395,
    "xacc": 168,
    "yacc": -1,
    "zacc": -1099,
    "xgyro": 364,
    "ygyro": 537,
    "zgyro": 49,
    "xmag": 33,
    "ymag": -196,
    "zmag": 459,
    "id": 0,
    "temperature": 4385
  },
  "SCALED_IMU2": {
    "mavpackettype": "SCALED_IMU2",
    "time_boot_ms": 876849,
    "xacc": 168,
    "yacc": -1,
    "zacc": -1099,
    "xgyro": 363,
    "ygyro": 538,
    "zgyro": 49,
    "xmag": 33,
    "ymag": -196,
    "zmag": 459,
    "temperature": 4385
  },
  "SCALED_IMU3": {
    "mavpackettype": "SCALED_IMU3",
    "time_boot_ms": 876849,
    "xacc": 0,
    "yacc": 0,
    "zacc": 0,
    "xgyro": 0,
    "ygyro": 0,
    "zgyro": 0,
    "xmag": 33,
    "ymag": -196,
    "zmag": 459,
    "temperature": 0
  },
  "SCALED_PRESSURE": {
    "mavpackettype": "SCALED_PRESSURE",
    "time_boot_ms": 876849,
    "press_abs": 1013.2427368164062,
    "press_diff": 0.0,
    "temperature": 3499,
    "temperature_press_diff": 0
  },
  "SCALED_PRESSURE2": {
    "mavpackettype": "SCALED_PRESSURE2",
    "time_boot_ms": 876849,
    "press_abs": 1013.2596435546875,
    "press_diff": 0.0,
    "temperature": 3500,
    "temperature_press_diff": 0
  },
  "GPS_RAW_INT": {
    "mavpackettype": "GPS_RAW_INT",
    "time_usec": 876653000,
    "fix_type": 6,
    "lat": 559954426,
    "lon": -33021951,
    "alt": 70,
    "eph": 121,
    "epv": 200,
    "vel": 10,
    "cog": 26835,
    "satellites_visible": 10,
    "alt_ellipsoid": 70,
    "h_acc": 300,
    "v_acc": 300,
    "vel_acc": 0,
    "hdg_acc": 0,
    "yaw": 0
  },
  "SYSTEM_TIME": {
    "mavpackettype": "SYSTEM_TIME",
    "time_unix_usec": 1737282711795380,
    "time_boot_ms": 876849
  },
  "RC_CHANNELS_SCALED": {
    "mavpackettype": "RC_CHANNELS_SCALED",
    "time_boot_ms": 876849,
    "port": 0,
    "chan1_scaled": 0,
    "chan2_scaled": 0,
    "chan3_scaled": 0,
    "chan4_scaled": 0,
    "chan5_scaled": 0,
    "chan6_scaled": 0,
    "chan7_scaled": 0,
    "chan8_scaled": 0,
    "rssi": 255
  },
  "SIMSTATE": {
    "mavpackettype": "SIMSTATE",
    "roll": -0.029786350205540657,
    "pitch": 0.12423954159021378,
    "yaw": 1.2067246437072754,
    "xacc": 1.7658191919326782,
    "yacc": -0.21918873488903046,
    "zacc": -10.874252319335938,
    "xgyro": 0.38813987374305725,
    "ygyro": 0.3668346703052521,
    "zgyro": 0.03664499893784523,
    "lat": 559954425,
    "lng": -33021955
  },
  "EKF_STATUS_REPORT": {
    "mavpackettype": "EKF_STATUS_REPORT",
    "flags": 831,
    "velocity_variance": 0.007172300014644861,
    "pos_horiz_variance": 0.0077135819010436535,
    "pos_vert_variance": 0.00988090317696333,
    "compass_variance": 0.019726766273379326,
    "terrain_alt_variance": 0.0,
    "airspeed_variance": 0.0
  },
  "LOCAL_POSITION_NED": {
    "mavpackettype": "LOCAL_POSITION_NED",
    "time_boot_ms": 876849,
    "x": 2.810426950454712,
    "y": -83.32780456542969,
    "z": -0.007633334491401911,
    "vx": -0.04487459734082222,
    "vy": -0.08439378440380096,
    "vz": -0.2399473786354065
  },
  "VIBRATION": {
    "mavpackettype": "VIBRATION",
    "time_usec": 876849395,
    "vibration_x": 0.2668810784816742,
    "vibration_y": 0.2758348286151886,
    "vibration_z": 0.19638453423976898,
    "clipping_0": 0,
    "clipping_1": 0,
    "clipping_2": 0
  },
  "BATTERY_STATUS": {
    "mavpackettype": "BATTERY_STATUS",
    "id": 0,
    "battery_function": 0,
    "type": 0,
    "temperature": 32767,
    "voltages": [
      12600,
      65535,
      65535,
      65535,
      65535,
      65535,
      65535,
      65535,
      65535,
      65535
    ],
    "current_battery": 0,
    "current_consumed": 0,
    "energy_consumed": 0,
    "battery_remaining": 100,
    "time_remaining": 0,
    "charge_state": 1,
    "voltages_ext": [
      0,
      0,
      0,
      0
    ],
    "mode": 0,
    "fault_bitmask": 0
  },
  "HEARTBEAT": {
    "mavpackettype": "HEARTBEAT",
    "type": 10,
    "autopilot": 3,
    "base_mode": 65,
    "custom_mode": 0,
    "system_status": 4,
    "mavlink_version": 3
  },
  "timestamp": "2025-01-19T10:32:25.434173Z"
}
==========================================
{
  "AHRS2": {
    "mavpackettype": "AHRS2",
    "roll": -0.042316220700740814,
    "pitch": 0.06551748514175415,
    "yaw": 1.1867460012435913,
    "altitude": -0.019999999552965164,
    "lat": 559954426,
    "lng": -33021970
  },
  "ATTITUDE": {
    "mavpackettype": "ATTITUDE",
    "time_boot_ms": 877849,
    "roll": -0.04504943639039993,
    "pitch": 0.05865936726331711,
    "yaw": 1.2149393558502197,
    "rollspeed": 0.19744515419006348,
    "pitchspeed": 0.4378436207771301,
    "yawspeed": 0.003402140224352479
  },
  "GLOBAL_POSITION_INT": {
    "mavpackettype": "GLOBAL_POSITION_INT",
    "time_boot_ms": 877849,
    "lat": 559954425,
    "lon": -33021975,
    "alt": 230,
    "relative_alt": 247,
    "vx": -13,
    "vy": -23,
    "vz": 22,
    "hdg": 6961
  },
  "VFR_HUD": {
    "mavpackettype": "VFR_HUD",
    "airspeed": 0.20800000429153442,
    "groundspeed": 0.2660386860370636,
    "heading": 69,
    "throttle": 0,
    "alt": 0.22999998927116394,
    "climb": -0.22741995751857758
  },
  "SYS_STATUS": {
    "mavpackettype": "SYS_STATUS",
    "onboard_control_sensors_present": 322034735,
    "onboard_control_sensors_enabled": 304185391,
    "onboard_control_sensors_health": 322011439,
    "load": 0,
    "voltage_battery": 12600,
    "current_battery": 0,
    "battery_remaining": 100,
    "drop_rate_comm": 0,
    "errors_comm": 0,
    "errors_count1": 0,
    "errors_count2": 0,
    "errors_count3": 0,
    "errors_count4": 0
  },
  "POWER_STATUS": {
    "mavpackettype": "POWER_STATUS",
    "Vcc": 5000,
    "Vservo": 0,
    "flags": 0
  },
  "MEMINFO": {
    "mavpackettype": "MEMINFO",
    "brkval": 0,
    "freemem": 65535,
    "freemem32": 131072
  },
  "MISSION_CURRENT": {
    "mavpackettype": "MISSION_CURRENT",
    "seq": 0,
    "total": 0,
    "mission_state": 1,
    "mission_mode": 0
  },
  "SERVO_OUTPUT_RAW": {
    "mavpackettype": "SERVO_OUTPUT_RAW",
    "time_usec": 877849395,
    "port": 0,
    "servo1_raw": 1500,
    "servo2_raw": 0,
    "servo3_raw": 1500,
    "servo4_raw": 0,
    "servo5_raw": 0,
    "servo6_raw": 0,
    "servo7_raw": 0,
    "servo8_raw": 0,
    "servo9_raw": 0,
    "servo10_raw": 0,
    "servo11_raw": 0,
    "servo12_raw": 0,
    "servo13_raw": 0,
    "servo14_raw": 0,
    "servo15_raw": 0,
    "servo16_raw": 0
  },
  "RC_CHANNELS": {
    "mavpackettype": "RC_CHANNELS",
    "time_boot_ms": 877849,
    "chancount": 8,
    "chan1_raw": 1500,
    "chan2_raw": 1500,
    "chan3_raw": 1500,
    "chan4_raw": 1500,
    "chan5_raw": 1800,
    "chan6_raw": 1000,
    "chan7_raw": 1000,
    "chan8_raw": 1800,
    "chan9_raw": 0,
    "chan10_raw": 0,
    "chan11_raw": 0,
    "chan12_raw": 0,
    "chan13_raw": 0,
    "chan14_raw": 0,
    "chan15_raw": 0,
    "chan16_raw": 0,
    "chan17_raw": 0,
    "chan18_raw": 0,
    "rssi": 255
  },
  "RAW_IMU": {
    "mavpackettype": "RAW_IMU",
    "time_usec": 877849395,
    "xacc": 67,
    "yacc": 140,
    "zacc": -774,
    "xgyro": 201,
    "ygyro": 441,
    "zgyro": 6,
    "xmag": 57,
    "ymag": -195,
    "zmag": 457,
    "id": 0,
    "temperature": 4385
  },
  "SCALED_IMU2": {
    "mavpackettype": "SCALED_IMU2",
    "time_boot_ms": 877849,
    "xacc": 67,
    "yacc": 140,
    "zacc": -774,
    "xgyro": 202,
    "ygyro": 441,
    "zgyro": 6,
    "xmag": 57,
    "ymag": -195,
    "zmag": 457,
    "temperature": 4385
  },
  "SCALED_IMU3": {
    "mavpackettype": "SCALED_IMU3",
    "time_boot_ms": 877849,
    "xacc": 0,
    "yacc": 0,
    "zacc": 0,
    "xgyro": 0,
    "ygyro": 0,
    "zgyro": 0,
    "xmag": 57,
    "ymag": -195,
    "zmag": 457,
    "temperature": 0
  },
  "SCALED_PRESSURE": {
    "mavpackettype": "SCALED_PRESSURE",
    "time_boot_ms": 877849,
    "press_abs": 1013.2189331054688,
    "press_diff": 0.0,
    "temperature": 3499,
    "temperature_press_diff": 0
  },
  "SCALED_PRESSURE2": {
    "mavpackettype": "SCALED_PRESSURE2",
    "time_boot_ms": 877849,
    "press_abs": 1013.233154296875,
    "press_diff": 0.0,
    "temperature": 3499,
    "temperature_press_diff": 0
  },
  "GPS_RAW_INT": {
    "mavpackettype": "GPS_RAW_INT",
    "time_usec": 877653000,
    "fix_type": 6,
    "lat": 559954426,
    "lon": -33021962,
    "alt": 270,
    "eph": 121,
    "epv": 200,
    "vel": 20,
    "cog": 27473,
    "satellites_visible": 10,
    "alt_ellipsoid": 270,
    "h_acc": 300,
    "v_acc": 300,
    "vel_acc": 0,
    "hdg_acc": 0,
    "yaw": 0
  },
  "SYSTEM_TIME": {
    "mavpackettype": "SYSTEM_TIME",
    "time_unix_usec": 1737282712795380,
    "time_boot_ms": 877849
  },
  "RC_CHANNELS_SCALED": {
    "mavpackettype": "RC_CHANNELS_SCALED",
    "time_boot_ms": 877849,
    "port": 0,
    "chan1_scaled": 0,
    "chan2_scaled": 0,
    "chan3_scaled": 0,
    "chan4_scaled": 0,
    "chan5_scaled": 0,
    "chan6_scaled": 0,
    "chan7_scaled": 0,
    "chan8_scaled": 0,
    "rssi": 255
  },
  "SIMSTATE": {
    "mavpackettype": "SIMSTATE",
    "roll": -0.04566482827067375,
    "pitch": 0.05797311291098595,
    "yaw": 1.199936866760254,
    "xacc": 0.7912096381187439,
    "yacc": 1.2221025228500366,
    "zacc": -7.68466854095459,
    "xgyro": 0.49131107330322266,
    "ygyro": 0.34623849391937256,
    "zgyro": -0.010820658877491951,
    "lat": 559954427,
    "lng": -33021973
  },
  "EKF_STATUS_REPORT": {
    "mavpackettype": "EKF_STATUS_REPORT",
    "flags": 831,
    "velocity_variance": 0.012856818735599518,
    "pos_horiz_variance": 0.0027056001126766205,
    "pos_vert_variance": 0.007421182002872229,
    "compass_variance": 0.01349108386784792,
    "terrain_alt_variance": 0.0,
    "airspeed_variance": 0.0
  },
  "LOCAL_POSITION_NED": {
    "mavpackettype": "LOCAL_POSITION_NED",
    "time_boot_ms": 877849,
    "x": 2.8398518562316895,
    "y": -83.44503021240234,
    "z": -0.19765864312648773,
    "vx": -0.13027718663215637,
    "vy": -0.23195785284042358,
    "vz": 0.22741995751857758
  },
  "VIBRATION": {
    "mavpackettype": "VIBRATION",
    "time_usec": 877849395,
    "vibration_x": 0.22016291320323944,
    "vibration_y": 0.13382042944431305,
    "vibration_z": 0.2365158051252365,
    "clipping_0": 0,
    "clipping_1": 0,
    "clipping_2": 0
  },
  "BATTERY_STATUS": {
    "mavpackettype": "BATTERY_STATUS",
    "id": 0,
    "battery_function": 0,
    "type": 0,
    "temperature": 32767,
    "voltages": [
      12600,
      65535,
      65535,
      65535,
      65535,
      65535,
      65535,
      65535,
      65535,
      65535
    ],
    "current_battery": 0,
    "current_consumed": 0,
    "energy_consumed": 0,
    "battery_remaining": 100,
    "time_remaining": 0,
    "charge_state": 1,
    "voltages_ext": [
      0,
      0,
      0,
      0
    ],
    "mode": 0,
    "fault_bitmask": 0
  },
  "AHRS": {
    "mavpackettype": "AHRS",
    "omegaIx": -0.003750107018277049,
    "omegaIy": -0.0038041742518544197,
    "omegaIz": -0.003364608623087406,
    "accel_weight": 0.0,
    "renorm_val": 0.0,
    "error_rp": 0.03686574846506119,
    "error_yaw": 0.06349623203277588
  },
  "HEARTBEAT": {
    "mavpackettype": "HEARTBEAT",
    "type": 10,
    "autopilot": 3,
    "base_mode": 65,
    "custom_mode": 0,
    "system_status": 4,
    "mavlink_version": 3
  },
  "timestamp": "2025-01-19T10:32:26.487348Z"
}
==========================================
{
  "AHRS2": {
    "mavpackettype": "AHRS2",
    "roll": 0.07435443997383118,
    "pitch": -0.012721406295895576,
    "yaw": 1.1585276126861572,
    "altitude": -0.07000000029802322,
    "lat": 559954426,
    "lng": -33021962
  },
  "ATTITUDE": {
    "mavpackettype": "ATTITUDE",
    "time_boot_ms": 878849,
    "roll": 0.07126174122095108,
    "pitch": -0.017927026376128197,
    "yaw": 1.1833442449569702,
    "rollspeed": -0.1109943836927414,
    "pitchspeed": 0.846558690071106,
    "yawspeed": 0.014820112846791744
  },
  "GLOBAL_POSITION_INT": {
    "mavpackettype": "GLOBAL_POSITION_INT",
    "time_boot_ms": 878849,
    "lat": 559954424,
    "lon": -33021959,
    "alt": -360,
    "relative_alt": -353,
    "vx": 7,
    "vy": 26,
    "vz": 12,
    "hdg": 6780
  },
  "VFR_HUD": {
    "mavpackettype": "VFR_HUD",
    "airspeed": 0.2330000102519989,
    "groundspeed": 0.2743884325027466,
    "heading": 67,
    "throttle": 0,
    "alt": -0.35999998450279236,
    "climb": -0.12842173874378204
  },
  "SYS_STATUS": {
    "mavpackettype": "SYS_STATUS",
    "onboard_control_sensors_present": 322034735,
    "onboard_control_sensors_enabled": 304185391,
    "onboard_control_sensors_health": 322011439,
    "load": 0,
    "voltage_battery": 12600,
    "current_battery": 0,
    "battery_remaining": 100,
    "drop_rate_comm": 0,
    "errors_comm": 0,
    "errors_count1": 0,
    "errors_count2": 0,
    "errors_count3": 0,
    "errors_count4": 0
  },
  "POWER_STATUS": {
    "mavpackettype": "POWER_STATUS",
    "Vcc": 5000,
    "Vservo": 0,
    "flags": 0
  },
  "MEMINFO": {
    "mavpackettype": "MEMINFO",
    "brkval": 0,
    "freemem": 65535,
    "freemem32": 131072
  },
  "MISSION_CURRENT": {
    "mavpackettype": "MISSION_CURRENT",
    "seq": 0,
    "total": 0,
    "mission_state": 1,
    "mission_mode": 0
  },
  "SERVO_OUTPUT_RAW": {
    "mavpackettype": "SERVO_OUTPUT_RAW",
    "time_usec": 878849395,
    "port": 0,
    "servo1_raw": 1500,
    "servo2_raw": 0,
    "servo3_raw": 1500,
    "servo4_raw": 0,
    "servo5_raw": 0,
    "servo6_raw": 0,
    "servo7_raw": 0,
    "servo8_raw": 0,
    "servo9_raw": 0,
    "servo10_raw": 0,
    "servo11_raw": 0,
    "servo12_raw": 0,
    "servo13_raw": 0,
    "servo14_raw": 0,
    "servo15_raw": 0,
    "servo16_raw": 0
  },
  "RC_CHANNELS": {
    "mavpackettype": "RC_CHANNELS",
    "time_boot_ms": 878849,
    "chancount": 8,
    "chan1_raw": 1500,
    "chan2_raw": 1500,
    "chan3_raw": 1500,
    "chan4_raw": 1500,
    "chan5_raw": 1800,
    "chan6_raw": 1000,
    "chan7_raw": 1000,
    "chan8_raw": 1800,
    "chan9_raw": 0,
    "chan10_raw": 0,
    "chan11_raw": 0,
    "chan12_raw": 0,
    "chan13_raw": 0,
    "chan14_raw": 0,
    "chan15_raw": 0,
    "chan16_raw": 0,
    "chan17_raw": 0,
    "chan18_raw": 0,
    "rssi": 255
  },
  "RAW_IMU": {
    "mavpackettype": "RAW_IMU",
    "time_usec": 878849395,
    "xacc": 2,
    "yacc": -162,
    "zacc": -1097,
    "xgyro": -107,
    "ygyro": 850,
    "zgyro": 18,
    "xmag": 122,
    "ymag": -123,
    "zmag": 469,
    "id": 0,
    "temperature": 4386
  },
  "SCALED_IMU2": {
    "mavpackettype": "SCALED_IMU2",
    "time_boot_ms": 878849,
    "xacc": 2,
    "yacc": -162,
    "zacc": -1097,
    "xgyro": -106,
    "ygyro": 850,
    "zgyro": 18,
    "xmag": 122,
    "ymag": -123,
    "zmag": 469,
    "temperature": 4386
  },
  "SCALED_IMU3": {
    "mavpackettype": "SCALED_IMU3",
    "time_boot_ms": 878849,
    "xacc": 0,
    "yacc": 0,
    "zacc": 0,
    "xgyro": 0,
    "ygyro": 0,
    "zgyro": 0,
    "xmag": 122,
    "ymag": -123,
    "zmag": 469,
    "temperature": 0
  },
  "SCALED_PRESSURE": {
    "mavpackettype": "SCALED_PRESSURE",
    "time_boot_ms": 878849,
    "press_abs": 1013.2734375,
    "press_diff": 0.0,
    "temperature": 3500,
    "temperature_press_diff": 0
  },
  "SCALED_PRESSURE2": {
    "mavpackettype": "SCALED_PRESSURE2",
    "time_boot_ms": 878849,
    "press_abs": 1013.2974243164062,
    "press_diff": 0.0,
    "temperature": 3500,
    "temperature_press_diff": 0
  },
  "GPS_RAW_INT": {
    "mavpackettype": "GPS_RAW_INT",
    "time_usec": 878653000,
    "fix_type": 6,
    "lat": 559954426,
    "lon": -33021971,
    "alt": -170,
    "eph": 121,
    "epv": 200,
    "vel": 23,
    "cog": 9310,
    "satellites_visible": 10,
    "alt_ellipsoid": -170,
    "h_acc": 300,
    "v_acc": 300,
    "vel_acc": 0,
    "hdg_acc": 0,
    "yaw": 0
  },
  "SYSTEM_TIME": {
    "mavpackettype": "SYSTEM_TIME",
    "time_unix_usec": 1737282713795380,
    "time_boot_ms": 878849
  },
  "RC_CHANNELS_SCALED": {
    "mavpackettype": "RC_CHANNELS_SCALED",
    "time_boot_ms": 878849,
    "port": 0,
    "chan1_scaled": 0,
    "chan2_scaled": 0,
    "chan3_scaled": 0,
    "chan4_scaled": 0,
    "chan5_scaled": 0,
    "chan6_scaled": 0,
    "chan7_scaled": 0,
    "chan8_scaled": 0,
    "rssi": 255
  },
  "SIMSTATE": {
    "mavpackettype": "SIMSTATE",
    "roll": 0.06968032568693161,
    "pitch": -0.017693938687443733,
    "yaw": 1.16843581199646,
    "xacc": 0.2514744997024536,
    "yacc": -1.395482063293457,
    "zacc": -10.56369686126709,
    "xgyro": -0.3586962819099426,
    "ygyro": 0.8559753894805908,
    "zgyro": 0.029019109904766083,
    "lat": 559954425,
    "lng": -33021960
  },
  "EKF_STATUS_REPORT": {
    "mavpackettype": "EKF_STATUS_REPORT",
    "flags": 831,
    "velocity_variance": 0.01659558154642582,
    "pos_horiz_variance": 0.007434953935444355,
    "pos_vert_variance": 0.022170593962073326,
    "compass_variance": 0.011306286789476871,
    "terrain_alt_variance": 0.0,
    "airspeed_variance": 0.0
  },
  "LOCAL_POSITION_NED": {
    "mavpackettype": "LOCAL_POSITION_NED",
    "time_boot_ms": 878849,
    "x": 2.818561315536499,
    "y": -83.34107208251953,
    "z": 0.4037879705429077,
    "vx": 0.07518091052770615,
    "vy": 0.2638879418373108,
    "vz": 0.12842173874378204
  },
  "VIBRATION": {
    "mavpackettype": "VIBRATION",
    "time_usec": 878849395,
    "vibration_x": 0.30735987424850464,
    "vibration_y": 0.2204006463289261,
    "vibration_z": 0.1889757364988327,
    "clipping_0": 0,
    "clipping_1": 0,
    "clipping_2": 0
  },
  "BATTERY_STATUS": {
    "mavpackettype": "BATTERY_STATUS",
    "id": 0,
    "battery_function": 0,
    "type": 0,
    "temperature": 32767,
    "voltages": [
      12600,
      65535,
      65535,
      65535,
      65535,
      65535,
      65535,
      65535,
      65535,
      65535
    ],
    "current_battery": 0,
    "current_consumed": 0,
    "energy_consumed": 0,
    "battery_remaining": 100,
    "time_remaining": 0,
    "charge_state": 1,
    "voltages_ext": [
      0,
      0,
      0,
      0
    ],
    "mode": 0,
    "fault_bitmask": 0
  },
  "TIMESYNC": {
    "mavpackettype": "TIMESYNC",
    "tc1": 0,
    "ts1": 878329395001
  },
  "AHRS": {
    "mavpackettype": "AHRS",
    "omegaIx": -0.0037679322995245457,
    "omegaIy": -0.0038202237337827682,
    "omegaIz": -0.003380263689905405,
    "accel_weight": 0.0,
    "renorm_val": 0.0,
    "error_rp": 0.0403466634452343,
    "error_yaw": 0.10151925683021545
  },
  "HEARTBEAT": {
    "mavpackettype": "HEARTBEAT",
    "type": 10,
    "autopilot": 3,
    "base_mode": 65,
    "custom_mode": 0,
    "system_status": 4,
    "mavlink_version": 3
  },
  "timestamp": "2025-01-19T10:32:27.544484Z"
}
==========================================
{
  "AHRS2": {
    "mavpackettype": "AHRS2",
    "roll": -0.14037616550922394,
    "pitch": 0.154680535197258,
    "yaw": 1.2006999254226685,
    "altitude": 0.2199999988079071,
    "lat": 559954443,
    "lng": -33021914
  },
  "ATTITUDE": {
    "mavpackettype": "ATTITUDE",
    "time_boot_ms": 879849,
    "roll": -0.14338597655296326,
    "pitch": 0.14768120646476746,
    "yaw": 1.231376051902771,
    "rollspeed": 0.02580934204161167,
    "pitchspeed": 0.5302534103393555,
    "yawspeed": 0.0656241774559021
  },
  "GLOBAL_POSITION_INT": {
    "mavpackettype": "GLOBAL_POSITION_INT",
    "time_boot_ms": 879849,
    "lat": 559954441,
    "lon": -33021923,
    "alt": 190,
    "relative_alt": 209,
    "vx": 13,
    "vy": -28,
    "vz": -76,
    "hdg": 7055
  },
  "VFR_HUD": {
    "mavpackettype": "VFR_HUD",
    "airspeed": 0.24700000882148743,
    "groundspeed": 0.32090601325035095,
    "heading": 70,
    "throttle": 0,
    "alt": 0.1899999976158142,
    "climb": 0.7633091807365417
  },
  "SYS_STATUS": {
    "mavpackettype": "SYS_STATUS",
    "onboard_control_sensors_present": 322034735,
    "onboard_control_sensors_enabled": 304185391,
    "onboard_control_sensors_health": 322011439,
    "load": 0,
    "voltage_battery": 12600,
    "current_battery": 0,
    "battery_remaining": 100,
    "drop_rate_comm": 0,
    "errors_comm": 0,
    "errors_count1": 0,
    "errors_count2": 0,
    "errors_count3": 0,
    "errors_count4": 0
  },
  "POWER_STATUS": {
    "mavpackettype": "POWER_STATUS",
    "Vcc": 5000,
    "Vservo": 0,
    "flags": 0
  },
  "MEMINFO": {
    "mavpackettype": "MEMINFO",
    "brkval": 0,
    "freemem": 65535,
    "freemem32": 131072
  },
  "MISSION_CURRENT": {
    "mavpackettype": "MISSION_CURRENT",
    "seq": 0,
    "total": 0,
    "mission_state": 1,
    "mission_mode": 0
  },
  "SERVO_OUTPUT_RAW": {
    "mavpackettype": "SERVO_OUTPUT_RAW",
    "time_usec": 879849395,
    "port": 0,
    "servo1_raw": 1500,
    "servo2_raw": 0,
    "servo3_raw": 1500,
    "servo4_raw": 0,
    "servo5_raw": 0,
    "servo6_raw": 0,
    "servo7_raw": 0,
    "servo8_raw": 0,
    "servo9_raw": 0,
    "servo10_raw": 0,
    "servo11_raw": 0,
    "servo12_raw": 0,
    "servo13_raw": 0,
    "servo14_raw": 0,
    "servo15_raw": 0,
    "servo16_raw": 0
  },
  "RC_CHANNELS": {
    "mavpackettype": "RC_CHANNELS",
    "time_boot_ms": 879849,
    "chancount": 8,
    "chan1_raw": 1500,
    "chan2_raw": 1500,
    "chan3_raw": 1500,
    "chan4_raw": 1500,
    "chan5_raw": 1800,
    "chan6_raw": 1000,
    "chan7_raw": 1000,
    "chan8_raw": 1800,
    "chan9_raw": 0,
    "chan10_raw": 0,
    "chan11_raw": 0,
    "chan12_raw": 0,
    "chan13_raw": 0,
    "chan14_raw": 0,
    "chan15_raw": 0,
    "chan16_raw": 0,
    "chan17_raw": 0,
    "chan18_raw": 0,
    "rssi": 255
  },
  "RAW_IMU": {
    "mavpackettype": "RAW_IMU",
    "time_usec": 879849395,
    "xacc": 15,
    "yacc": 121,
    "zacc": -982,
    "xgyro": 29,
    "ygyro": 534,
    "zgyro": 69,
    "xmag": 18,
    "ymag": -232,
    "zmag": 443,
    "id": 0,
    "temperature": 4386
  },
  "SCALED_IMU2": {
    "mavpackettype": "SCALED_IMU2",
    "time_boot_ms": 879849,
    "xacc": 15,
    "yacc": 121,
    "zacc": -980,
    "xgyro": 29,
    "ygyro": 534,
    "zgyro": 68,
    "xmag": 18,
    "ymag": -232,
    "zmag": 443,
    "temperature": 4386
  },
  "SCALED_IMU3": {
    "mavpackettype": "SCALED_IMU3",
    "time_boot_ms": 879849,
    "xacc": 0,
    "yacc": 0,
    "zacc": 0,
    "xgyro": 0,
    "ygyro": 0,
    "zgyro": 0,
    "xmag": 18,
    "ymag": -232,
    "zmag": 443,
    "temperature": 0
  },
  "SCALED_PRESSURE": {
    "mavpackettype": "SCALED_PRESSURE",
    "time_boot_ms": 879849,
    "press_abs": 1013.228515625,
    "press_diff": 0.0,
    "temperature": 3499,
    "temperature_press_diff": 0
  },
  "SCALED_PRESSURE2": {
    "mavpackettype": "SCALED_PRESSURE2",
    "time_boot_ms": 879849,
    "press_abs": 1013.2500610351562,
    "press_diff": 0.0,
    "temperature": 3500,
    "temperature_press_diff": 0
  },
  "GPS_RAW_INT": {
    "mavpackettype": "GPS_RAW_INT",
    "time_usec": 879653000,
    "fix_type": 6,
    "lat": 559954438,
    "lon": -33021919,
    "alt": 0,
    "eph": 121,
    "epv": 200,
    "vel": 24,
    "cog": 2938,
    "satellites_visible": 10,
    "alt_ellipsoid": 0,
    "h_acc": 300,
    "v_acc": 300,
    "vel_acc": 0,
    "hdg_acc": 0,
    "yaw": 0
  },
  "SYSTEM_TIME": {
    "mavpackettype": "SYSTEM_TIME",
    "time_unix_usec": 1737282714795380,
    "time_boot_ms": 879849
  },
  "RC_CHANNELS_SCALED": {
    "mavpackettype": "RC_CHANNELS_SCALED",
    "time_boot_ms": 879849,
    "port": 0,
    "chan1_scaled": 0,
    "chan2_scaled": 0,
    "chan3_scaled": 0,
    "chan4_scaled": 0,
    "chan5_scaled": 0,
    "chan6_scaled": 0,
    "chan7_scaled": 0,
    "chan8_scaled": 0,
    "rssi": 255
  },
  "SIMSTATE": {
    "mavpackettype": "SIMSTATE",
    "roll": -0.1444416493177414,
    "pitch": 0.14731520414352417,
    "yaw": 1.216578722000122,
    "xacc": 0.3762543499469757,
    "yacc": 1.1819361448287964,
    "zacc": -9.46867847442627,
    "xgyro": 0.061031587421894073,
    "ygyro": 0.5239121913909912,
    "zgyro": 0.05407363176345825,
    "lat": 559954442,
    "lng": -33021920
  },
  "EKF_STATUS_REPORT": {
    "mavpackettype": "EKF_STATUS_REPORT",
    "flags": 831,
    "velocity_variance": 0.012593087740242481,
    "pos_horiz_variance": 0.005791341885924339,
    "pos_vert_variance": 0.00713468249887228,
    "compass_variance": 0.012087780050933361,
    "terrain_alt_variance": 0.0,
    "airspeed_variance": 0.0
  },
  "LOCAL_POSITION_NED": {
    "mavpackettype": "LOCAL_POSITION_NED",
    "time_boot_ms": 879849,
    "x": 3.0210816860198975,
    "y": -83.12094116210938,
    "z": -0.15974067151546478,
    "vx": 0.1394645720720291,
    "vy": -0.28901609778404236,
    "vz": -0.7633091807365417
  },
  "VIBRATION": {
    "mavpackettype": "VIBRATION",
    "time_usec": 879849395,
    "vibration_x": 0.23916085064411163,
    "vibration_y": 0.062183916568756104,
    "vibration_z": 0.6478584408760071,
    "clipping_0": 0,
    "clipping_1": 0,
    "clipping_2": 0
  },
  "BATTERY_STATUS": {
    "mavpackettype": "BATTERY_STATUS",
    "id": 0,
    "battery_function": 0,
    "type": 0,
    "temperature": 32767,
    "voltages": [
      12600,
      65535,
      65535,
      65535,
      65535,
      65535,
      65535,
      65535,
      65535,
      65535
    ],
    "current_battery": 0,
    "current_consumed": 0,
    "energy_consumed": 0,
    "battery_remaining": 100,
    "time_remaining": 0,
    "charge_state": 1,
    "voltages_ext": [
      0,
      0,
      0,
      0
    ],
    "mode": 0,
    "fault_bitmask": 0
  },
  "AHRS": {
    "mavpackettype": "AHRS",
    "omegaIx": -0.003775161923840642,
    "omegaIy": -0.0038293388206511736,
    "omegaIz": -0.0033988389186561108,
    "accel_weight": 0.0,
    "renorm_val": 0.0,
    "error_rp": 0.032323047518730164,
    "error_yaw": 0.050703633576631546
  },
  "PARAM_VALUE": {
    "mavpackettype": "PARAM_VALUE",
    "param_id": "BARO2_GND_PRESS",
    "param_value": 101327.8984375,
    "param_type": 9,
    "param_count": 1278,
    "param_index": 65535
  },
  "HEARTBEAT": {
    "mavpackettype": "HEARTBEAT",
    "type": 10,
    "autopilot": 3,
    "base_mode": 65,
    "custom_mode": 0,
    "system_status": 4,
    "mavlink_version": 3
  },
  "timestamp": "2025-01-19T10:32:28.606373Z"
}
==========================================
{
  "AHRS2": {
    "mavpackettype": "AHRS2",
    "roll": 0.08527565747499466,
    "pitch": -0.10124640166759491,
    "yaw": 1.1041995286941528,
    "altitude": 0.07999999821186066,
    "lat": 559954451,
    "lng": -33021953
  },
  "ATTITUDE": {
    "mavpackettype": "ATTITUDE",
    "time_boot_ms": 880849,
    "roll": 0.08273185044527054,
    "pitch": -0.10906541347503662,
    "yaw": 1.1242812871932983,
    "rollspeed": 1.0508031845092773,
    "pitchspeed": 0.9274944067001343,
    "yawspeed": -0.16387011110782623
  },
  "GLOBAL_POSITION_INT": {
    "mavpackettype": "GLOBAL_POSITION_INT",
    "time_boot_ms": 880849,
    "lat": 559954449,
    "lon": -33021957,
    "alt": 500,
    "relative_alt": 510,
    "vx": -20,
    "vy": -13,
    "vz": 30,
    "hdg": 6441
  },
  "VFR_HUD": {
    "mavpackettype": "VFR_HUD",
    "airspeed": 0.14800000190734863,
    "groundspeed": 0.24306589365005493,
    "heading": 64,
    "throttle": 0,
    "alt": 0.5,
    "climb": -0.30469316244125366
  },
  "SYS_STATUS": {
    "mavpackettype": "SYS_STATUS",
    "onboard_control_sensors_present": 322034735,
    "onboard_control_sensors_enabled": 304185391,
    "onboard_control_sensors_health": 322011439,
    "load": 0,
    "voltage_battery": 12600,
    "current_battery": 0,
    "battery_remaining": 100,
    "drop_rate_comm": 0,
    "errors_comm": 0,
    "errors_count1": 0,
    "errors_count2": 0,
    "errors_count3": 0,
    "errors_count4": 0
  },
  "POWER_STATUS": {
    "mavpackettype": "POWER_STATUS",
    "Vcc": 5000,
    "Vservo": 0,
    "flags": 0
  },
  "MEMINFO": {
    "mavpackettype": "MEMINFO",
    "brkval": 0,
    "freemem": 65535,
    "freemem32": 131072
  },
  "MISSION_CURRENT": {
    "mavpackettype": "MISSION_CURRENT",
    "seq": 0,
    "total": 0,
    "mission_state": 1,
    "mission_mode": 0
  },
  "SERVO_OUTPUT_RAW": {
    "mavpackettype": "SERVO_OUTPUT_RAW",
    "time_usec": 880849395,
    "port": 0,
    "servo1_raw": 1500,
    "servo2_raw": 0,
    "servo3_raw": 1500,
    "servo4_raw": 0,
    "servo5_raw": 0,
    "servo6_raw": 0,
    "servo7_raw": 0,
    "servo8_raw": 0,
    "servo9_raw": 0,
    "servo10_raw": 0,
    "servo11_raw": 0,
    "servo12_raw": 0,
    "servo13_raw": 0,
    "servo14_raw": 0,
    "servo15_raw": 0,
    "servo16_raw": 0
  },
  "RC_CHANNELS": {
    "mavpackettype": "RC_CHANNELS",
    "time_boot_ms": 880849,
    "chancount": 8,
    "chan1_raw": 1500,
    "chan2_raw": 1500,
    "chan3_raw": 1500,
    "chan4_raw": 1500,
    "chan5_raw": 1800,
    "chan6_raw": 1000,
    "chan7_raw": 1000,
    "chan8_raw": 1800,
    "chan9_raw": 0,
    "chan10_raw": 0,
    "chan11_raw": 0,
    "chan12_raw": 0,
    "chan13_raw": 0,
    "chan14_raw": 0,
    "chan15_raw": 0,
    "chan16_raw": 0,
    "chan17_raw": 0,
    "chan18_raw": 0,
    "rssi": 255
  },
  "RAW_IMU": {
    "mavpackettype": "RAW_IMU",
    "time_usec": 880849395,
    "xacc": -86,
    "yacc": 9,
    "zacc": -686,
    "xgyro": 1054,
    "ygyro": 931,
    "zgyro": -160,
    "xmag": 171,
    "ymag": -179,
    "zmag": 434,
    "id": 0,
    "temperature": 4387
  },
  "SCALED_IMU2": {
    "mavpackettype": "SCALED_IMU2",
    "time_boot_ms": 880849,
    "xacc": -86,
    "yacc": 8,
    "zacc": -687,
    "xgyro": 1053,
    "ygyro": 930,
    "zgyro": -160,
    "xmag": 171,
    "ymag": -179,
    "zmag": 434,
    "temperature": 4387
  },
  "SCALED_IMU3": {
    "mavpackettype": "SCALED_IMU3",
    "time_boot_ms": 880849,
    "xacc": 0,
    "yacc": 0,
    "zacc": 0,
    "xgyro": 0,
    "ygyro": 0,
    "zgyro": 0,
    "xmag": 171,
    "ymag": -179,
    "zmag": 434,
    "temperature": 0
  },
  "SCALED_PRESSURE": {
    "mavpackettype": "SCALED_PRESSURE",
    "time_boot_ms": 880849,
    "press_abs": 1013.179443359375,
    "press_diff": 0.0,
    "temperature": 3499,
    "temperature_press_diff": 0
  },
  "SCALED_PRESSURE2": {
    "mavpackettype": "SCALED_PRESSURE2",
    "time_boot_ms": 880849,
    "press_abs": 1013.2101440429688,
    "press_diff": 0.0,
    "temperature": 3499,
    "temperature_press_diff": 0
  },
  "GPS_RAW_INT": {
    "mavpackettype": "GPS_RAW_INT",
    "time_usec": 880653000,
    "fix_type": 6,
    "lat": 559954450,
    "lon": -33021948,
    "alt": 510,
    "eph": 121,
    "epv": 200,
    "vel": 14,
    "cog": 29586,
    "satellites_visible": 10,
    "alt_ellipsoid": 510,
    "h_acc": 300,
    "v_acc": 300,
    "vel_acc": 0,
    "hdg_acc": 0,
    "yaw": 0
  },
  "SYSTEM_TIME": {
    "mavpackettype": "SYSTEM_TIME",
    "time_unix_usec": 1737282715795380,
    "time_boot_ms": 880849
  },
  "RC_CHANNELS_SCALED": {
    "mavpackettype": "RC_CHANNELS_SCALED",
    "time_boot_ms": 880849,
    "port": 0,
    "chan1_scaled": 0,
    "chan2_scaled": 0,
    "chan3_scaled": 0,
    "chan4_scaled": 0,
    "chan5_scaled": 0,
    "chan6_scaled": 0,
    "chan7_scaled": 0,
    "chan8_scaled": 0,
    "rssi": 255
  },
  "SIMSTATE": {
    "mavpackettype": "SIMSTATE",
    "roll": 0.08307242393493652,
    "pitch": -0.10901086777448654,
    "yaw": 1.1094709634780884,
    "xacc": -0.6101171374320984,
    "yacc": -0.5169089436531067,
    "zacc": -6.964735507965088,
    "xgyro": 1.1736793518066406,
    "ygyro": 1.0358644723892212,
    "zgyro": -0.18453656136989594,
    "lat": 559954450,
    "lng": -33021955
  },
  "EKF_STATUS_REPORT": {
    "mavpackettype": "EKF_STATUS_REPORT",
    "flags": 831,
    "velocity_variance": 0.01618753746151924,
    "pos_horiz_variance": 0.0043970211409032345,
    "pos_vert_variance": 0.035849906504154205,
    "compass_variance": 0.005086738150566816,
    "terrain_alt_variance": 0.0,
    "airspeed_variance": 0.0
  },
  "LOCAL_POSITION_NED": {
    "mavpackettype": "LOCAL_POSITION_NED",
    "time_boot_ms": 880849,
    "x": 3.0969204902648926,
    "y": -83.33140563964844,
    "z": -0.46011659502983093,
    "vx": -0.20350490510463715,
    "vy": -0.1329164355993271,
    "vz": 0.30469316244125366
  },
  "VIBRATION": {
    "mavpackettype": "VIBRATION",
    "time_usec": 880849395,
    "vibration_x": 0.4445739686489105,
    "vibration_y": 0.4361650347709656,
    "vibration_z": 0.6678180694580078,
    "clipping_0": 0,
    "clipping_1": 0,
    "clipping_2": 0
  },
  "BATTERY_STATUS": {
    "mavpackettype": "BATTERY_STATUS",
    "id": 0,
    "battery_function": 0,
    "type": 0,
    "temperature": 32767,
    "voltages": [
      12600,
      65535,
      65535,
      65535,
      65535,
      65535,
      65535,
      65535,
      65535,
      65535
    ],
    "current_battery": 0,
    "current_consumed": 0,
    "energy_consumed": 0,
    "battery_remaining": 100,
    "time_remaining": 0,
    "charge_state": 1,
    "voltages_ext": [
      0,
      0,
      0,
      0
    ],
    "mode": 0,
    "fault_bitmask": 0
  },
  "AHRS": {
    "mavpackettype": "AHRS",
    "omegaIx": -0.003786084707826376,
    "omegaIy": -0.003848037915304303,
    "omegaIz": -0.003405786817893386,
    "accel_weight": 0.0,
    "renorm_val": 0.0,
    "error_rp": 0.05041955038905144,
    "error_yaw": 0.08552780747413635
  },
  "HEARTBEAT": {
    "mavpackettype": "HEARTBEAT",
    "type": 10,
    "autopilot": 3,
    "base_mode": 65,
    "custom_mode": 0,
    "system_status": 4,
    "mavlink_version": 3
  },
  "timestamp": "2025-01-19T10:32:29.662139Z"
}
==========================================
{
  "AHRS2": {
    "mavpackettype": "AHRS2",
    "roll": -0.03962806239724159,
    "pitch": -0.020923970267176628,
    "yaw": 1.0820034742355347,
    "altitude": -0.07999999821186066,
    "lat": 559954450,
    "lng": -33021947
  },
  "ATTITUDE": {
    "mavpackettype": "ATTITUDE",
    "time_boot_ms": 881849,
    "roll": -0.04325079172849655,
    "pitch": -0.0293539110571146,
    "yaw": 1.105376124382019,
    "rollspeed": -0.7572351098060608,
    "pitchspeed": 0.3499465882778168,
    "yawspeed": -0.03056158684194088
  },
  "GLOBAL_POSITION_INT": {
    "mavpackettype": "GLOBAL_POSITION_INT",
    "time_boot_ms": 881849,
    "lat": 559954449,
    "lon": -33021952,
    "alt": -140,
    "relative_alt": -131,
    "vx": 0,
    "vy": -8,
    "vz": 26,
    "hdg": 6333
  },
  "VFR_HUD": {
    "mavpackettype": "VFR_HUD",
    "airspeed": 0.16300000250339508,
    "groundspeed": 0.0892459824681282,
    "heading": 63,
    "throttle": 0,
    "alt": -0.14000000059604645,
    "climb": -0.2685750722885132
  },
  "SYS_STATUS": {
    "mavpackettype": "SYS_STATUS",
    "onboard_control_sensors_present": 322034735,
    "onboard_control_sensors_enabled": 304185391,
    "onboard_control_sensors_health": 322011439,
    "load": 0,
    "voltage_battery": 12600,
    "current_battery": 0,
    "battery_remaining": 100,
    "drop_rate_comm": 0,
    "errors_comm": 0,
    "errors_count1": 0,
    "errors_count2": 0,
    "errors_count3": 0,
    "errors_count4": 0
  },
  "POWER_STATUS": {
    "mavpackettype": "POWER_STATUS",
    "Vcc": 5000,
    "Vservo": 0,
    "flags": 0
  },
  "MEMINFO": {
    "mavpackettype": "MEMINFO",
    "brkval": 0,
    "freemem": 65535,
    "freemem32": 131072
  },
  "MISSION_CURRENT": {
    "mavpackettype": "MISSION_CURRENT",
    "seq": 0,
    "total": 0,
    "mission_state": 1,
    "mission_mode": 0
  },
  "SERVO_OUTPUT_RAW": {
    "mavpackettype": "SERVO_OUTPUT_RAW",
    "time_usec": 881849395,
    "port": 0,
    "servo1_raw": 1500,
    "servo2_raw": 0,
    "servo3_raw": 1500,
    "servo4_raw": 0,
    "servo5_raw": 0,
    "servo6_raw": 0,
    "servo7_raw": 0,
    "servo8_raw": 0,
    "servo9_raw": 0,
    "servo10_raw": 0,
    "servo11_raw": 0,
    "servo12_raw": 0,
    "servo13_raw": 0,
    "servo14_raw": 0,
    "servo15_raw": 0,
    "servo16_raw": 0
  },
  "RC_CHANNELS": {
    "mavpackettype": "RC_CHANNELS",
    "time_boot_ms": 881849,
    "chancount": 8,
    "chan1_raw": 1500,
    "chan2_raw": 1500,
    "chan3_raw": 1500,
    "chan4_raw": 1500,
    "chan5_raw": 1800,
    "chan6_raw": 1000,
    "chan7_raw": 1000,
    "chan8_raw": 1800,
    "chan9_raw": 0,
    "chan10_raw": 0,
    "chan11_raw": 0,
    "chan12_raw": 0,
    "chan13_raw": 0,
    "chan14_raw": 0,
    "chan15_raw": 0,
    "chan16_raw": 0,
    "chan17_raw": 0,
    "chan18_raw": 0,
    "rssi": 255
  },
  "RAW_IMU": {
    "mavpackettype": "RAW_IMU",
    "time_usec": 881849395,
    "xacc": -117,
    "yacc": 38,
    "zacc": -899,
    "xgyro": -753,
    "ygyro": 353,
    "zgyro": -27,
    "xmag": 109,
    "ymag": -136,
    "zmag": 469,
    "id": 0,
    "temperature": 4387
  },
  "SCALED_IMU2": {
    "mavpackettype": "SCALED_IMU2",
    "time_boot_ms": 881849,
    "xacc": -117,
    "yacc": 38,
    "zacc": -900,
    "xgyro": -752,
    "ygyro": 351,
    "zgyro": -27,
    "xmag": 109,
    "ymag": -136,
    "zmag": 469,
    "temperature": 4387
  },
  "SCALED_IMU3": {
    "mavpackettype": "SCALED_IMU3",
    "time_boot_ms": 881849,
    "xacc": 0,
    "yacc": 0,
    "zacc": 0,
    "xgyro": 0,
    "ygyro": 0,
    "zgyro": 0,
    "xmag": 109,
    "ymag": -136,
    "zmag": 469,
    "temperature": 0
  },
  "SCALED_PRESSURE": {
    "mavpackettype": "SCALED_PRESSURE",
    "time_boot_ms": 881849,
    "press_abs": 1013.2451171875,
    "press_diff": 0.0,
    "temperature": 3499,
    "temperature_press_diff": 0
  },
  "SCALED_PRESSURE2": {
    "mavpackettype": "SCALED_PRESSURE2",
    "time_boot_ms": 881849,
    "press_abs": 1013.2677612304688,
    "press_diff": 0.0,
    "temperature": 3500,
    "temperature_press_diff": 0
  },
  "GPS_RAW_INT": {
    "mavpackettype": "GPS_RAW_INT",
    "time_usec": 881653000,
    "fix_type": 6,
    "lat": 559954451,
    "lon": -33021953,
    "alt": 10,
    "eph": 121,
    "epv": 200,
    "vel": 16,
    "cog": 10997,
    "satellites_visible": 10,
    "alt_ellipsoid": 10,
    "h_acc": 300,
    "v_acc": 300,
    "vel_acc": 0,
    "hdg_acc": 0,
    "yaw": 0
  },
  "SYSTEM_TIME": {
    "mavpackettype": "SYSTEM_TIME",
    "time_unix_usec": 1737282716795380,
    "time_boot_ms": 881849
  },
  "RC_CHANNELS_SCALED": {
    "mavpackettype": "RC_CHANNELS_SCALED",
    "time_boot_ms": 881849,
    "port": 0,
    "chan1_scaled": 0,
    "chan2_scaled": 0,
    "chan3_scaled": 0,
    "chan4_scaled": 0,
    "chan5_scaled": 0,
    "chan6_scaled": 0,
    "chan7_scaled": 0,
    "chan8_scaled": 0,
    "rssi": 255
  },
  "SIMSTATE": {
    "mavpackettype": "SIMSTATE",
    "roll": -0.045846663415431976,
    "pitch": -0.030014997348189354,
    "yaw": 1.0904899835586548,
    "xacc": -1.069201111793518,
    "yacc": 0.7591813206672668,
    "zacc": -9.00981330871582,
    "xgyro": -0.7261805534362793,
    "ygyro": 0.5055749416351318,
    "zgyro": -0.010788843035697937,
    "lat": 559954451,
    "lng": -33021951
  },
  "EKF_STATUS_REPORT": {
    "mavpackettype": "EKF_STATUS_REPORT",
    "flags": 831,
    "velocity_variance": 0.020229842513799667,
    "pos_horiz_variance": 0.007793014403432608,
    "pos_vert_variance": 0.011304276995360851,
    "compass_variance": 0.004963872488588095,
    "terrain_alt_variance": 0.0,
    "airspeed_variance": 0.0
  },
  "LOCAL_POSITION_NED": {
    "mavpackettype": "LOCAL_POSITION_NED",
    "time_boot_ms": 881849,
    "x": 3.097459554672241,
    "y": -83.29621887207031,
    "z": 0.18105728924274445,
    "vx": -0.0057930233888328075,
    "vy": -0.08905776590108871,
    "vz": 0.2685750722885132
  },
  "VIBRATION": {
    "mavpackettype": "VIBRATION",
    "time_usec": 881849395,
    "vibration_x": 0.0874527096748352,
    "vibration_y": 0.44664573669433594,
    "vibration_z": 0.25886455178260803,
    "clipping_0": 0,
    "clipping_1": 0,
    "clipping_2": 0
  },
  "BATTERY_STATUS": {
    "mavpackettype": "BATTERY_STATUS",
    "id": 0,
    "battery_function": 0,
    "type": 0,
    "temperature": 32767,
    "voltages": [
      12600,
      65535,
      65535,
      65535,
      65535,
      65535,
      65535,
      65535,
      65535,
      65535
    ],
    "current_battery": 0,
    "current_consumed": 0,
    "energy_consumed": 0,
    "battery_remaining": 100,
    "time_remaining": 0,
    "charge_state": 1,
    "voltages_ext": [
      0,
      0,
      0,
      0
    ],
    "mode": 0,
    "fault_bitmask": 0
  },
  "AHRS": {
    "mavpackettype": "AHRS",
    "omegaIx": -0.0037918987218290567,
    "omegaIy": -0.0038586107548326254,
    "omegaIz": -0.0034226926509290934,
    "accel_weight": 0.0,
    "renorm_val": 0.0,
    "error_rp": 0.04668833315372467,
    "error_yaw": 0.08539735525846481
  },
  "HEARTBEAT": {
    "mavpackettype": "HEARTBEAT",
    "type": 10,
    "autopilot": 3,
    "base_mode": 65,
    "custom_mode": 0,
    "system_status": 4,
    "mavlink_version": 3
  },
  "timestamp": "2025-01-19T10:32:30.721126Z"
}
==========================================
{
  "AHRS2": {
    "mavpackettype": "AHRS2",
    "roll": 0.13900013267993927,
    "pitch": -0.10100363940000534,
    "yaw": 1.039589762687683,
    "altitude": 0.07999999821186066,
    "lat": 559954437,
    "lng": -33021981
  },
  "ATTITUDE": {
    "mavpackettype": "ATTITUDE",
    "time_boot_ms": 882849,
    "roll": 0.13445855677127838,
    "pitch": -0.10794085264205933,
    "yaw": 1.0609389543533325,
    "rollspeed": 0.2565568685531616,
    "pitchspeed": -0.4405355155467987,
    "yawspeed": -0.026787519454956055
  },
  "GLOBAL_POSITION_INT": {
    "mavpackettype": "GLOBAL_POSITION_INT",
    "time_boot_ms": 882849,
    "lat": 559954433,
    "lon": -33021985,
    "alt": -280,
    "relative_alt": -271,
    "vx": -26,
    "vy": -30,
    "vz": -5,
    "hdg": 6078
  },
  "VFR_HUD": {
    "mavpackettype": "VFR_HUD",
    "airspeed": 0.2939999997615814,
    "groundspeed": 0.4018656015396118,
    "heading": 60,
    "throttle": 0,
    "alt": -0.2800000011920929,
    "climb": 0.05014178529381752
  },
  "SYS_STATUS": {
    "mavpackettype": "SYS_STATUS",
    "onboard_control_sensors_present": 322034735,
    "onboard_control_sensors_enabled": 304185391,
    "onboard_control_sensors_health": 322011439,
    "load": 0,
    "voltage_battery": 12600,
    "current_battery": 0,
    "battery_remaining": 100,
    "drop_rate_comm": 0,
    "errors_comm": 0,
    "errors_count1": 0,
    "errors_count2": 0,
    "errors_count3": 0,
    "errors_count4": 0
  },
  "POWER_STATUS": {
    "mavpackettype": "POWER_STATUS",
    "Vcc": 5000,
    "Vservo": 0,
    "flags": 0
  },
  "MEMINFO": {
    "mavpackettype": "MEMINFO",
    "brkval": 0,
    "freemem": 65535,
    "freemem32": 131072
  },
  "MISSION_CURRENT": {
    "mavpackettype": "MISSION_CURRENT",
    "seq": 0,
    "total": 0,
    "mission_state": 1,
    "mission_mode": 0
  },
  "SERVO_OUTPUT_RAW": {
    "mavpackettype": "SERVO_OUTPUT_RAW",
    "time_usec": 882849395,
    "port": 0,
    "servo1_raw": 1500,
    "servo2_raw": 0,
    "servo3_raw": 1500,
    "servo4_raw": 0,
    "servo5_raw": 0,
    "servo6_raw": 0,
    "servo7_raw": 0,
    "servo8_raw": 0,
    "servo9_raw": 0,
    "servo10_raw": 0,
    "servo11_raw": 0,
    "servo12_raw": 0,
    "servo13_raw": 0,
    "servo14_raw": 0,
    "servo15_raw": 0,
    "servo16_raw": 0
  },
  "RC_CHANNELS": {
    "mavpackettype": "RC_CHANNELS",
    "time_boot_ms": 882849,
    "chancount": 8,
    "chan1_raw": 1500,
    "chan2_raw": 1500,
    "chan3_raw": 1500,
    "chan4_raw": 1500,
    "chan5_raw": 1800,
    "chan6_raw": 1000,
    "chan7_raw": 1000,
    "chan8_raw": 1800,
    "chan9_raw": 0,
    "chan10_raw": 0,
    "chan11_raw": 0,
    "chan12_raw": 0,
    "chan13_raw": 0,
    "chan14_raw": 0,
    "chan15_raw": 0,
    "chan16_raw": 0,
    "chan17_raw": 0,
    "chan18_raw": 0,
    "rssi": 255
  },
  "RAW_IMU": {
    "mavpackettype": "RAW_IMU",
    "time_usec": 882849395,
    "xacc": -155,
    "yacc": -186,
    "zacc": -1130,
    "xgyro": 260,
    "ygyro": -436,
    "zgyro": -23,
    "xmag": 107,
    "ymag": -106,
    "zmag": 477,
    "id": 0,
    "temperature": 4387
  },
  "SCALED_IMU2": {
    "mavpackettype": "SCALED_IMU2",
    "time_boot_ms": 882849,
    "xacc": -155,
    "yacc": -186,
    "zacc": -1130,
    "xgyro": 260,
    "ygyro": -436,
    "zgyro": -23,
    "xmag": 107,
    "ymag": -106,
    "zmag": 477,
    "temperature": 4387
  },
  "SCALED_IMU3": {
    "mavpackettype": "SCALED_IMU3",
    "time_boot_ms": 882849,
    "xacc": 0,
    "yacc": 0,
    "zacc": 0,
    "xgyro": 0,
    "ygyro": 0,
    "zgyro": 0,
    "xmag": 107,
    "ymag": -106,
    "zmag": 477,
    "temperature": 0
  },
  "SCALED_PRESSURE": {
    "mavpackettype": "SCALED_PRESSURE",
    "time_boot_ms": 882849,
    "press_abs": 1013.2508544921875,
    "press_diff": 0.0,
    "temperature": 3500,
    "temperature_press_diff": 0
  },
  "SCALED_PRESSURE2": {
    "mavpackettype": "SCALED_PRESSURE2",
    "time_boot_ms": 882849,
    "press_abs": 1013.2762451171875,
    "press_diff": 0.0,
    "temperature": 3500,
    "temperature_press_diff": 0
  },
  "GPS_RAW_INT": {
    "mavpackettype": "GPS_RAW_INT",
    "time_usec": 882653000,
    "fix_type": 6,
    "lat": 559954441,
    "lon": -33021972,
    "alt": -130,
    "eph": 121,
    "epv": 200,
    "vel": 29,
    "cog": 22930,
    "satellites_visible": 10,
    "alt_ellipsoid": -130,
    "h_acc": 300,
    "v_acc": 300,
    "vel_acc": 0,
    "hdg_acc": 0,
    "yaw": 0
  },
  "SYSTEM_TIME": {
    "mavpackettype": "SYSTEM_TIME",
    "time_unix_usec": 1737282717795380,
    "time_boot_ms": 882849
  },
  "RC_CHANNELS_SCALED": {
    "mavpackettype": "RC_CHANNELS_SCALED",
    "time_boot_ms": 882849,
    "port": 0,
    "chan1_scaled": 0,
    "chan2_scaled": 0,
    "chan3_scaled": 0,
    "chan4_scaled": 0,
    "chan5_scaled": 0,
    "chan6_scaled": 0,
    "chan7_scaled": 0,
    "chan8_scaled": 0,
    "rssi": 255
  },
  "SIMSTATE": {
    "mavpackettype": "SIMSTATE",
    "roll": 0.132949098944664,
    "pitch": -0.10968112200498581,
    "yaw": 1.0462372303009033,
    "xacc": -1.5411885976791382,
    "yacc": -1.7407207489013672,
    "zacc": -10.920042991638184,
    "xgyro": 0.03784167021512985,
    "ygyro": -0.20317934453487396,
    "zgyro": -0.023869410157203674,
    "lat": 559954436,
    "lng": -33021984
  },
  "EKF_STATUS_REPORT": {
    "mavpackettype": "EKF_STATUS_REPORT",
    "flags": 831,
    "velocity_variance": 0.011435664258897305,
    "pos_horiz_variance": 0.005985998082906008,
    "pos_vert_variance": 0.005324969068169594,
    "compass_variance": 0.0026963171549141407,
    "terrain_alt_variance": 0.0,
    "airspeed_variance": 0.0
  },
  "LOCAL_POSITION_NED": {
    "mavpackettype": "LOCAL_POSITION_NED",
    "time_boot_ms": 882849,
    "x": 2.9268112182617188,
    "y": -83.5101318359375,
    "z": 0.32138150930404663,
    "vx": -0.26499834656715393,
    "vy": -0.30211228132247925,
    "vz": -0.05014178529381752
  },
  "VIBRATION": {
    "mavpackettype": "VIBRATION",
    "time_usec": 882849395,
    "vibration_x": 0.20963658392429352,
    "vibration_y": 0.20492592453956604,
    "vibration_z": 0.18183310329914093,
    "clipping_0": 0,
    "clipping_1": 0,
    "clipping_2": 0
  },
  "BATTERY_STATUS": {
    "mavpackettype": "BATTERY_STATUS",
    "id": 0,
    "battery_function": 0,
    "type": 0,
    "temperature": 32767,
    "voltages": [
      12600,
      65535,
      65535,
      65535,
      65535,
      65535,
      65535,
      65535,
      65535,
      65535
    ],
    "current_battery": 0,
    "current_consumed": 0,
    "energy_consumed": 0,
    "battery_remaining": 100,
    "time_remaining": 0,
    "charge_state": 1,
    "voltages_ext": [
      0,
      0,
      0,
      0
    ],
    "mode": 0,
    "fault_bitmask": 0
  },
  "AHRS": {
    "mavpackettype": "AHRS",
    "omegaIx": -0.003808615729212761,
    "omegaIy": -0.0038769589737057686,
    "omegaIz": -0.0034326037857681513,
    "accel_weight": 0.0,
    "renorm_val": 0.0,
    "error_rp": 0.03215142711997032,
    "error_yaw": 0.0844181478023529
  },
  "HEARTBEAT": {
    "mavpackettype": "HEARTBEAT",
    "type": 10,
    "autopilot": 3,
    "base_mode": 65,
    "custom_mode": 0,
    "system_status": 4,
    "mavlink_version": 3
  },
  "timestamp": "2025-01-19T10:32:31.777125Z"
}
==========================================
{
  "AHRS2": {
    "mavpackettype": "AHRS2",
    "roll": -0.19742493331432343,
    "pitch": -0.07951534539461136,
    "yaw": 1.0623594522476196,
    "altitude": 0.17999999225139618,
    "lat": 559954429,
    "lng": -33022012
  },
  "ATTITUDE": {
    "mavpackettype": "ATTITUDE",
    "time_boot_ms": 883849,
    "roll": -0.2015332728624344,
    "pitch": -0.08541141450405121,
    "yaw": 1.0884792804718018,
    "rollspeed": -0.5055609345436096,
    "pitchspeed": -0.40002375841140747,
    "yawspeed": -0.08568703383207321
  },
  "GLOBAL_POSITION_INT": {
    "mavpackettype": "GLOBAL_POSITION_INT",
    "time_boot_ms": 883849,
    "lat": 559954429,
    "lon": -33022012,
    "alt": 80,
    "relative_alt": 99,
    "vx": 30,
    "vy": 0,
    "vz": -60,
    "hdg": 6236
  },
  "VFR_HUD": {
    "mavpackettype": "VFR_HUD",
    "airspeed": 0.11100000888109207,
    "groundspeed": 0.3065578043460846,
    "heading": 62,
    "throttle": 0,
    "alt": 0.07999999821186066,
    "climb": 0.6077027320861816
  },
  "SYS_STATUS": {
    "mavpackettype": "SYS_STATUS",
    "onboard_control_sensors_present": 322034735,
    "onboard_control_sensors_enabled": 304185391,
    "onboard_control_sensors_health": 322011439,
    "load": 0,
    "voltage_battery": 12600,
    "current_battery": 0,
    "battery_remaining": 100,
    "drop_rate_comm": 0,
    "errors_comm": 0,
    "errors_count1": 0,
    "errors_count2": 0,
    "errors_count3": 0,
    "errors_count4": 0
  },
  "POWER_STATUS": {
    "mavpackettype": "POWER_STATUS",
    "Vcc": 5000,
    "Vservo": 0,
    "flags": 0
  },
  "MEMINFO": {
    "mavpackettype": "MEMINFO",
    "brkval": 0,
    "freemem": 65535,
    "freemem32": 131072
  },
  "MISSION_CURRENT": {
    "mavpackettype": "MISSION_CURRENT",
    "seq": 0,
    "total": 0,
    "mission_state": 1,
    "mission_mode": 0
  },
  "SERVO_OUTPUT_RAW": {
    "mavpackettype": "SERVO_OUTPUT_RAW",
    "time_usec": 883849395,
    "port": 0,
    "servo1_raw": 1500,
    "servo2_raw": 0,
    "servo3_raw": 1500,
    "servo4_raw": 0,
    "servo5_raw": 0,
    "servo6_raw": 0,
    "servo7_raw": 0,
    "servo8_raw": 0,
    "servo9_raw": 0,
    "servo10_raw": 0,
    "servo11_raw": 0,
    "servo12_raw": 0,
    "servo13_raw": 0,
    "servo14_raw": 0,
    "servo15_raw": 0,
    "servo16_raw": 0
  },
  "RC_CHANNELS": {
    "mavpackettype": "RC_CHANNELS",
    "time_boot_ms": 883849,
    "chancount": 8,
    "chan1_raw": 1500,
    "chan2_raw": 1500,
    "chan3_raw": 1500,
    "chan4_raw": 1500,
    "chan5_raw": 1800,
    "chan6_raw": 1000,
    "chan7_raw": 1000,
    "chan8_raw": 1800,
    "chan9_raw": 0,
    "chan10_raw": 0,
    "chan11_raw": 0,
    "chan12_raw": 0,
    "chan13_raw": 0,
    "chan14_raw": 0,
    "chan15_raw": 0,
    "chan16_raw": 0,
    "chan17_raw": 0,
    "chan18_raw": 0,
    "rssi": 255
  },
  "RAW_IMU": {
    "mavpackettype": "RAW_IMU",
    "time_usec": 883849395,
    "xacc": -66,
    "yacc": 145,
    "zacc": -1054,
    "xgyro": -501,
    "ygyro": -396,
    "zgyro": -82,
    "xmag": 96,
    "ymag": -219,
    "zmag": 439,
    "id": 0,
    "temperature": 4388
  },
  "SCALED_IMU2": {
    "mavpackettype": "SCALED_IMU2",
    "time_boot_ms": 883849,
    "xacc": -66,
    "yacc": 145,
    "zacc": -1058,
    "xgyro": -501,
    "ygyro": -396,
    "zgyro": -82,
    "xmag": 96,
    "ymag": -219,
    "zmag": 439,
    "temperature": 4388
  },
  "SCALED_IMU3": {
    "mavpackettype": "SCALED_IMU3",
    "time_boot_ms": 883849,
    "xacc": 0,
    "yacc": 0,
    "zacc": 0,
    "xgyro": 0,
    "ygyro": 0,
    "zgyro": 0,
    "xmag": 96,
    "ymag": -219,
    "zmag": 439,
    "temperature": 0
  },
  "SCALED_PRESSURE": {
    "mavpackettype": "SCALED_PRESSURE",
    "time_boot_ms": 883849,
    "press_abs": 1013.2327270507812,
    "press_diff": 0.0,
    "temperature": 3499,
    "temperature_press_diff": 0
  },
  "SCALED_PRESSURE2": {
    "mavpackettype": "SCALED_PRESSURE2",
    "time_boot_ms": 883849,
    "press_abs": 1013.2642211914062,
    "press_diff": 0.0,
    "temperature": 3500,
    "temperature_press_diff": 0
  },
  "GPS_RAW_INT": {
    "mavpackettype": "GPS_RAW_INT",
    "time_usec": 883653000,
    "fix_type": 6,
    "lat": 559954427,
    "lon": -33022010,
    "alt": -40,
    "eph": 121,
    "epv": 200,
    "vel": 11,
    "cog": 32751,
    "satellites_visible": 10,
    "alt_ellipsoid": -40,
    "h_acc": 300,
    "v_acc": 300,
    "vel_acc": 0,
    "hdg_acc": 0,
    "yaw": 0
  },
  "SYSTEM_TIME": {
    "mavpackettype": "SYSTEM_TIME",
    "time_unix_usec": 1737282718795380,
    "time_boot_ms": 883849
  },
  "RC_CHANNELS_SCALED": {
    "mavpackettype": "RC_CHANNELS_SCALED",
    "time_boot_ms": 883849,
    "port": 0,
    "chan1_scaled": 0,
    "chan2_scaled": 0,
    "chan3_scaled": 0,
    "chan4_scaled": 0,
    "chan5_scaled": 0,
    "chan6_scaled": 0,
    "chan7_scaled": 0,
    "chan8_scaled": 0,
    "rssi": 255
  },
  "SIMSTATE": {
    "mavpackettype": "SIMSTATE",
    "roll": -0.2037847936153412,
    "pitch": -0.08710798621177673,
    "yaw": 1.073596477508545,
    "xacc": -0.8839768767356873,
    "yacc": 1.6471229791641235,
    "zacc": -11.293492317199707,
    "xgyro": -0.4752683937549591,
    "ygyro": -0.28596359491348267,
    "zgyro": -0.0930243656039238,
    "lat": 559954431,
    "lng": -33022011
  },
  "EKF_STATUS_REPORT": {
    "mavpackettype": "EKF_STATUS_REPORT",
    "flags": 831,
    "velocity_variance": 0.014266901649534702,
    "pos_horiz_variance": 0.009465647861361504,
    "pos_vert_variance": 0.02132246270775795,
    "compass_variance": 0.009585369378328323,
    "terrain_alt_variance": 0.0,
    "airspeed_variance": 0.0
  },
  "LOCAL_POSITION_NED": {
    "mavpackettype": "LOCAL_POSITION_NED",
    "time_boot_ms": 883849,
    "x": 2.8908004760742188,
    "y": -83.67630004882812,
    "z": -0.049206215888261795,
    "vx": 0.3065575957298279,
    "vy": -0.00035981624387204647,
    "vz": -0.6077027320861816
  },
  "VIBRATION": {
    "mavpackettype": "VIBRATION",
    "time_usec": 883849395,
    "vibration_x": 0.24739046394824982,
    "vibration_y": 0.20198877155780792,
    "vibration_z": 0.649011492729187,
    "clipping_0": 0,
    "clipping_1": 0,
    "clipping_2": 0
  },
  "BATTERY_STATUS": {
    "mavpackettype": "BATTERY_STATUS",
    "id": 0,
    "battery_function": 0,
    "type": 0,
    "temperature": 32767,
    "voltages": [
      12600,
      65535,
      65535,
      65535,
      65535,
      65535,
      65535,
      65535,
      65535,
      65535
    ],
    "current_battery": 0,
    "current_consumed": 0,
    "energy_consumed": 0,
    "battery_remaining": 100,
    "time_remaining": 0,
    "charge_state": 1,
    "voltages_ext": [
      0,
      0,
      0,
      0
    ],
    "mode": 0,
    "fault_bitmask": 0
  },
  "AHRS": {
    "mavpackettype": "AHRS",
    "omegaIx": -0.003824218874797225,
    "omegaIy": -0.0038964170962572098,
    "omegaIz": -0.0034488642122596502,
    "accel_weight": 0.0,
    "renorm_val": 0.0,
    "error_rp": 0.022222047671675682,
    "error_yaw": 0.03624909371137619
  },
  "HEARTBEAT": {
    "mavpackettype": "HEARTBEAT",
    "type": 10,
    "autopilot": 3,
    "base_mode": 65,
    "custom_mode": 0,
    "system_status": 4,
    "mavlink_version": 3
  },
  "timestamp": "2025-01-19T10:32:32.834244Z"
}
==========================================
